{"type":"FeatureCollection","features":[{"type":"Feature","geometry":{"type":"LineString","coordinates":[[121.7126227,24.9376514,0],[121.7130519,24.93743,0],[121.7127542,24.9367661,0],[121.7125664,24.9364183,0],[121.7123411,24.9360486,0],[121.7120353,24.9355743,0],[121.7119093,24.9354016,0],[121.7117751,24.935297,0],[121.7116451,24.9352155,0],[121.7115257,24.935173,0],[121.711523,24.9350952,0],[121.7115069,24.9347328,0],[121.7114855,24.9342536,0],[121.7113594,24.9339763,0],[121.7112991,24.9338803,0],[121.7111904,24.9338474,0],[121.7109111,24.9338265,0],[121.7103557,24.9336019,0],[121.7101076,24.9334532,0],[121.7099291,24.9332607,0],[121.7095801,24.9327387,0],[121.7093466,24.932356,0],[121.7091881,24.932275,0],[121.7088844,24.9323425,0],[121.7082856,24.9324732,0],[121.7073187,24.9324331,0],[121.7069962,24.9323984,0],[121.7068668,24.9323249,0],[121.706451,24.9325505,0],[121.7060192,24.9327323,0],[121.7055686,24.9328533,0],[121.705299,24.9329176,0],[121.7049926,24.93321,0],[121.7047535,24.933209,0],[121.7046206,24.9332207,0],[121.7045681,24.9332907,0],[121.7045305,24.933432,0],[121.704584,24.9336121,0],[121.7042323,24.9339945,0],[121.7040855,24.934101,0],[121.70396,24.9341053,0],[121.7037595,24.9340999,0],[121.7036662,24.9340119,0],[121.7039352,24.9336626,0],[121.7039049,24.9334557,0],[121.7034564,24.9335307,0],[121.7010705,24.9345297,0],[121.6996797,24.9348647,0],[121.6995466,24.9342067,0],[121.6992532,24.9341419,0],[121.6990026,24.9342133,0],[121.6985053,24.9340512,0],[121.6981904,24.9338891,0],[121.698019,24.9337209,0],[121.6978905,24.9335333,0],[121.6977808,24.9333597,0],[121.697655,24.9331204,0],[121.697491,24.9329878,0],[121.6973915,24.9329385,0],[121.697284,24.93286,0],[121.6972282,24.9327816,0],[121.6971805,24.932691,0],[121.6971717,24.9325614,0],[121.6971334,24.9325049,0],[121.6970272,24.9325231,0],[121.6967019,24.9325973,0],[121.6966988,24.9325845,0],[121.6969427,24.9325307,0],[121.6968809,24.9324904,0],[121.6968567,24.9323292,0],[121.6969241,24.9320676,0],[121.6970774,24.9318061,0],[121.697413,24.9317343,0],[121.6977739,24.9315621,0],[121.6981563,24.9314095,0],[121.6989884,24.9316793,0],[121.7001473,24.9321663,0],[121.7004907,24.9321131,0],[121.7007536,24.9318847,0],[121.7008596,24.9318923,0],[121.7012446,24.9323377,0],[121.7013245,24.9327051,0],[121.7013731,24.9328979,0],[121.7014351,24.9330311,0],[121.7016274,24.933227,0],[121.7018479,24.93339,0],[121.7019034,24.9333632,0],[121.7019643,24.9333098,0],[121.7019806,24.9332893,0],[121.701907,24.9332352,0],[121.7018481,24.933163,0],[121.7017587,24.9329991,0],[121.7015397,24.932148,0],[121.7011383,24.9314915,0],[121.7003346,24.9308009,0],[121.7003726,24.9300615,0],[121.7004091,24.9300604,0],[121.7003687,24.9307969,0],[121.7007575,24.9311248,0],[121.7011595,24.931479,0],[121.7015669,24.93213,0],[121.7017747,24.9329942,0],[121.7018638,24.9331576,0],[121.701932,24.9332362,0],[121.7019721,24.9332625,0],[121.7020589,24.933256,0],[121.7024053,24.9329019,0],[121.7025746,24.9328056,0],[121.7028298,24.9327395,0],[121.7031065,24.9326198,0],[121.7035682,24.9323202,0],[121.7039602,24.9321081,0],[121.7042962,24.9320147,0],[121.7046054,24.9320137,0],[121.7047168,24.9320523,0],[121.7050106,24.932266,0],[121.7055565,24.9325283,0],[121.7057949,24.9324163,0],[121.7064129,24.9318398,0],[121.7069559,24.9313217,0],[121.7073541,24.9308936,0],[121.7075269,24.9309228,0],[121.707372,24.9310687,0],[121.7071097,24.9315648,0],[121.7069322,24.9318725,0],[121.7068565,24.9322775,0],[121.7070384,24.9323735,0],[121.7073222,24.9323772,0],[121.7082545,24.9324477,0],[121.7090005,24.9322416,0],[121.7091887,24.9322251,0],[121.7093715,24.9323133,0],[121.7099403,24.9332196,0],[121.7101362,24.9334125,0],[121.7104118,24.9335787,0],[121.7109235,24.9337887,0],[121.7111263,24.9337725,0],[121.711329,24.9338342,0],[121.7114325,24.9340223,0],[121.7114878,24.9342226,0],[121.7119233,24.9343987,0],[121.7123615,24.9347403,0],[121.7131063,24.9354339,0],[121.7125936,24.9363791,0],[121.7123963,24.9367252,0],[121.7127328,24.9374388,0],[121.7125588,24.9375497,0],[121.7125939,24.9375875,0]]},"properties":{"name":"大林線"}},{"type":"Feature","geometry":{"type":"Point","coordinates":[121.703919,24.9334515,0]},"properties":{"name":"有應公","styleUrl":"#icon-1899-0288D1-labelson-nodesc","styleHash":"-48200e67"}},{"type":"Feature","geometry":{"type":"Point","coordinates":[121.6996408,24.9346144,0]},"properties":{"name":"玻璃橋","styleUrl":"#icon-1899-0288D1-labelson-nodesc","styleHash":"-48200e67"}},{"type":"Feature","geometry":{"type":"Point","coordinates":[121.6966938,24.9325556,0]},"properties":{"name":"福德宮","styleUrl":"#icon-1899-0288D1-labelson-nodesc","styleHash":"-48200e67"}},{"type":"Feature","geometry":{"type":"Point","coordinates":[121.7009671,24.9319382,0]},"properties":{"name":"傅家古厝","styleUrl":"#icon-1899-0288D1-labelson-nodesc","styleHash":"-48200e67"}},{"type":"Feature","geometry":{"type":"Point","coordinates":[121.701649,24.9330739,0]},"properties":{"name":"協德宮","styleUrl":"#icon-1899-0288D1-labelson-nodesc","styleHash":"-48200e67"}},{"type":"Feature","geometry":{"type":"Point","coordinates":[121.7006502,24.9299855,0]},"properties":{"name":"法務部廉政署廉政研習中心","styleUrl":"#icon-1899-0288D1-labelson-nodesc","styleHash":"-48200e67"}},{"type":"Feature","geometry":{"type":"Point","coordinates":[121.7026155,24.9318384,0]},"properties":{"name":"墓園","styleUrl":"#icon-1899-0288D1-labelson-nodesc","styleHash":"-48200e67"}},{"type":"Feature","geometry":{"type":"Point","coordinates":[121.7053111,24.9323613,0]},"properties":{"name":"大林橋","styleUrl":"#icon-1899-0288D1-labelson-nodesc","styleHash":"-48200e67"}},{"type":"Feature","geometry":{"type":"Point","coordinates":[121.7069982,24.9318163,0]},"properties":{"name":"北宜公路","styleUrl":"#icon-1899-0288D1-labelson-nodesc","styleHash":"-48200e67"}},{"type":"Feature","geometry":{"type":"Point","coordinates":[121.7114855,24.9346766,0]},"properties":{"name":"坪林舊橋","styleUrl":"#icon-1899-0288D1-labelson-nodesc","styleHash":"-48200e67"}},{"type":"Feature","geometry":{"type":"Point","coordinates":[121.7128078,24.935917,0]},"properties":{"name":"坪林拱橋","styleUrl":"#icon-1899-0288D1-labelson-nodesc","styleHash":"-48200e67"}},{"type":"Feature","geometry":{"type":"Point","coordinates":[121.7057048,24.9328243,0]},"properties":{"name":"舊哨站","styleUrl":"#icon-1899-0288D1-labelson-nodesc","styleHash":"-48200e67"}},{"type":"Feature","geometry":{"type":"Point","coordinates":[121.7049579,24.9333714,0]},"properties":{"name":"軍營舊址","styleUrl":"#icon-1899-0288D1-labelson-nodesc","styleHash":"-48200e67"}},{"type":"Feature","geometry":{"type":"Point","coordinates":[121.7047063,24.9334289,0]},"properties":{"name":"舊農會碾米廠","styleUrl":"#icon-1899-0288D1-labelson-nodesc","styleHash":"-48200e67"}}]}